state,March_15,April_15,May_15,June_15,July_15,August_15,September_15,October_15,November_15,December_15,January_16,February_16,March_16,state_total,Lon,Lat,name
AL,0,32694.5,23942.74,14086.71,15386.66,15865.59,23767.06,135590.94,49698.33,23318.81,23789.85,114166.94,73666.59,545974.72,-86.827719,32.773329,Alabama
AK,0,7900,5450,3278,2805.11,8087.47,2673.12,6216.66,2396.46,4639.85,5955.43,20988.91,21273.53,91664.54,-151.3,64.9,Alaska
AZ,0,76216.25,54425.99,44749.06,23419.28,23451.24,37664.01,62281.59,173838.25,115214.02,94253.85,142748.54,268499.15,1116761.23,-111.658929,34.294776,Arizona
AR,0,65481.64,47795.64,54151.45,30612.78,67335.46,258250.99,37214.62,72521.65,30648.71,40285.37,104191.84,166269.31,974759.46,-92.44427,34.921992,Arkansas
CA,0,3615681.89,2050866.44,2326229.99,1754236.38,1174548.37,2493044.92,2629780.17,1210376.89,2370352.31,2277648.4,4223749.25,4219908.55,30346423.56,-121,37.255299,California
CO,0,165153,187865.71,111618.08,500073.91,267004.29,62731.02,75904.15,545196.11,111418.35,165780.12,368616.81,444743.16,3006104.71,-105.546087,38.999137,Colorado
CT,0,209840.48,285045.36,327722.54,59854.22,77229.11,154894.02,252260.36,74564.32,136114.82,227752.98,393436.37,573615.77,2772330.35,-72.737122,41.606924,Connecticut
DE,0,4635,3935.05,11720.68,8097.89,8590.5,8803.25,9807,3337.55,9263.63,31358.96,42461.2,31008,173018.71,-75.499779,38.993921,Delaware
DC,0,1079564.56,505126.34,738073.94,257609.98,272931.64,342206.2,264665.75,482162.35,398877.64,339852.36,601577.26,562976,5845624.02,-77.018293,38.896097,District of Columbia
FL,0,633491.24,1616997.65,710833.72,196342.49,209884.14,666130.93,333897.3,1011716.92,464787.95,507944.64,1147762.81,747436.47,8247226.26,-81.5,28.615732,Florida
GA,0,176341.16,299517.42,132426.16,49850.74,39780.93,160838.38,141435.45,38212.67,74688.98,209258.5,373472.44,527362.15,2223184.98,-83.2,32.652474,Georgia
HI,0,6345,11969.73,12191.34,3590.84,7548.24,11638.7,8126.38,13127.55,11709.38,17251.63,61179.05,53132.74,217810.58,-155.4,19.6,Hawaii
ID,0,1050,6695.02,9280,12230,9653,7517.84,3915.25,3324.69,8563.1,6186.02,22073.79,28134.76,118623.47,-114,44,Idaho
IL,0,470431.39,823378.75,478589.94,348531.95,75828.79,409676.81,531726.68,276285.97,421515.48,332252.21,1129873.64,646277.8,5944369.41,-89.202674,40.061203,Illinois
IN,0,33380,47191.1,242983.12,45560.67,10534.04,26846.09,18112.36,53547.86,101818.43,42761.42,82907.33,91594.45,797236.87,-86,39.902306,Indiana
IA,0,13831,25905.97,14153.69,11320.57,25886.9,21593.61,18558.16,35479.97,146963.43,29213.09,87096.07,57966.09,487968.55,-93.506079,42.083992,Iowa
KS,0,5055,19697.39,9893.69,53173.58,10439.2,92473.38,14557.27,7561.47,11252.28,21922.4,54888.27,44082.46,344996.39,-98.380047,38.482145,Kansas
KY,0,15000,18706.41,20278.77,11934.27,14542.62,11685.84,12946.65,163270.71,26355.87,34264.45,59288.15,55577.16,443850.9,-84.7,37.513983,Kentucky
LA,0,68215,16100,25906.41,16093.07,13870.12,245238.96,16750.17,13683.55,28228.02,256153.5,54443.27,50215.91,804897.98,-91.956502,31.048572,Louisiana
ME,0,14385,14596.94,9741,3731.25,20854,128082.44,9645.38,16980.08,15332.1,41698.98,42632.48,71755.5,389435.15,-69.217654,45.336854,Maine
MD,0,632743,358128.32,409930.27,182964.58,182585.48,293500.48,401201.01,619996.73,435193.54,371379.2,554530.01,481382.8,4923535.42,-76.768453,39.032646,Maryland
MA,0,287197.41,285409.43,906664.8,320791.31,235635.01,521431.13,374355.8,312890.97,324507.81,473757.94,822845.38,976938.52,5842425.51,-71.733952,42.237892,Massachusetts
MI,0,102053.85,85035.56,40344.73,354296.36,33936.79,55945.86,118010.3,47223.92,81385.18,257458.18,314822.16,287752.77,1778265.66,-84.5,43,Michigan
MN,0,74693,84579.34,405340.69,12689.52,247973.32,32788.84,36895.19,31667.69,152122.16,62805.39,186528.3,199699.7,1527783.14,-94.296494,46,Minnesota
MS,0,19950,16725.44,26847.44,861.38,11090.16,5441.52,7521.4,10301.01,11224.92,34867.02,31033.4,33138.05,209001.74,-89.661244,32.767379,Mississippi
MO,0,120686,137263.89,459359.46,143181.92,13718.33,100565.66,43454.52,91198.25,169159.52,51550.06,203682.41,144337.32,1678157.34,-92.480117,38.379759,Missouri
MT,0,9210,823.47,963,4213.45,7533.19,5125.34,12044,5539.68,14628.5,8804.08,24799.66,21097.81,114782.18,-109.657143,47.048656,Montana
NE,0,18716,5507.18,1304.53,4340,2591.64,4308.01,10119.24,8869.35,192398.8,15973.96,45445.73,27174.13,336748.57,-99.813973,41.523428,Nebraska
NV,0,193030,102100.1,17312.04,12158.69,46861.51,59265.71,74974.26,32801.47,41007.65,102949.18,140470.02,86977.72,909908.35,-116.649615,39.347228,Nevada
NH,0,15704.9,8902.38,119074.13,22130.73,15168.2,23847.28,27135.19,17284.78,15233.72,26307.13,89846.56,76185.58,456820.58,-71.563059,43.69196,New Hampshire
NJ,0,275820.81,264993.2,415005.89,73847.39,138652.24,373754.79,325729.08,228988.27,230287.76,371889.94,584188.57,484766.42,3767924.36,-74.669503,40.205609,New Jersey
NM,0,45226,117453.76,148371.72,5308.66,16956.68,20223.9,23749.8,19967.97,51485.95,116725.07,111346.48,86528.06,763344.05,-106.087356,34.416615,New Mexico
NY,0,2565454.76,2245442.53,2489062.02,721889.77,1327389.11,1657061.13,1443103.65,1343672.95,4873653.37,3209493.87,7194823.73,7397942.22,36468989.11,-75.502933,42.927867,New York
NC,0,85645.16,53636.01,59569.17,247292.14,31139.21,296807.44,56170.66,154647.27,184296.49,241418.21,198728.52,275493.78,1884844.06,-79.251255,35.536226,North Carolina
ND,0,3760,3352.78,66.69,200,350,550,1201,859.54,2607.62,6586.24,10434,9020.14,38988.01,-100.483902,47.461886,North Dakota
OH,0,109511.83,134574.22,96277.57,25516.87,217838.22,168049.9,73973.29,137592.47,84724.18,189147.83,292766.5,357477.64,1887450.52,-82.5,40,Ohio
OK,0,20211.16,32125.66,48553.88,10287.81,18073.01,12837.17,8549.05,252672.71,283208.82,32754.03,198794.39,67128.58,985196.27,-97.502839,35.58171,Oklahoma
OR,0,35579.75,28745.69,56343.42,219933.78,85418.85,22189.89,42393.64,34464.6,70828.15,59959.8,149118.63,172444.59,977420.79,-120.537708,43.944367,Oregon
PA,0,245141.32,192466.55,480434.55,541524.85,51502.9,102640.37,224899.9,157475.39,265524.18,513802.09,432791.73,368854.99,3577058.82,-77.807272,40.874089,Pennsylvania
RI,0,53355,36047.32,118303.6,14103.06,24181.92,20752.51,18844.62,73136.65,108461.66,24138.16,99628.3,69392.52,660345.32,-71.531002,41.682406,Rhode Island
SC,0,30565.16,30782.51,177252.4,13357.03,27350.81,46556.19,36387.3,81834.78,26389.41,84895.84,268265.46,82164.18,905801.07,-80.883023,33.900651,South Carolina
SD,0,7866,3950,9562,2900,1854.44,3495.13,1910,1720.26,3763,4395,10133,10017.09,61565.92,-100.22772,44.44542,South Dakota
TN,0,71975,87045.13,78916.45,33397.2,41930.12,36842.59,77566.97,334425.27,58405.21,46518.66,124813.41,376318.64,1368154.65,-86.322209,35.838538,Tennessee
TX,0,430070.25,830593.25,773548.52,193737.83,640352.8,434540.84,522503.1,733794.34,408742.31,918951.85,1010803.94,833776.1,7731415.13,-98.5,31.3,Texas
UT,0,8403,19133.35,2764.29,156943.88,56566.48,14943.05,11774.35,9240.15,10935.45,16136.71,33581.28,53932.66,394354.65,-111.669552,39.329209,Utah
VT,0,21550,4255,21466.29,3550,4645.89,12769.3,7242.69,6191,7526.95,14422.32,23094.49,22951.44,149665.37,-72.662015,44.07374,Vermont
VA,0,494110.16,234738.53,474268.38,337649.15,142076.21,289466.14,246074.2,397678.61,381668.8,285567.56,633398.17,698217.43,4614913.34,-78.810097,37.507621,Virginia
WA,0,194917.16,135649.37,411793.2,62590.11,58560.34,83598.82,103709.83,155966.72,146836.81,222987.81,409722.19,1072317.33,3058649.69,-120.398462,47.380244,Washington
WV,0,3311,3805,4215.89,7647.39,3194.51,28436.38,15010.15,8559.78,10049.29,28819.2,32290.45,25323.76,170662.8,-80.610605,38.644907,West Virginia
WI,0,39855.16,30401.02,23183.47,18252.08,54800.7,98373.33,30547.89,99509.06,39621.11,77148.94,160673.26,110778.05,783144.07,-89.7,44.5,Wisconsin
WY,0,3530,3355,2341,2411.89,6054.96,8130,2912,7660.84,4664.69,7547,15271.68,17126.6,81005.66,-107.553549,43.027008,Wyoming
